{"type":"FeatureCollection","features":[{"type":"Feature","geometry":{"type":"Point","coordinates":[144.96787656,-37.81874249]},"properties":{"location_id":5,"sensor_description":"Princes Bridge","sensor_name":"PriNW_T","installation_date":"2009-03-26","note":"Replace with: 00:6e:02:01:9e:54","location_type":"Outdoor","status":"A","direction_1":"North","direction_2":"South","latitude":-37.81874249,"longitude":144.96787656}},{"type":"Feature","geometry":{"type":"Point","coordinates":[144.95102555,-37.81982992]},"properties":{"location_id":9,"sensor_description":"Southern Cross Station","sensor_name":"Col700_T","installation_date":"2009-03-23","note":null,"location_type":"Outdoor","status":"A","direction_1":"East","direction_2":"West","latitude":-37.81982992,"longitude":144.95102555}},{"type":"Feature","geometry":{"type":"Point","coordinates":[144.94292398,-37.81457988]},"properties":{"location_id":12,"sensor_description":"New Quay","sensor_name":"NewQ_T","installation_date":"2009-01-21","note":null,"location_type":"Outdoor","status":"A","direction_1":"East","direction_2":"West","latitude":-37.81457988,"longitude":144.94292398}},{"type":"Feature","geometry":{"type":"Point","coordinates":[144.96291897,-37.82011242]},"properties":{"location_id":14,"sensor_description":"Sandridge Bridge","sensor_name":"SanBri_T","installation_date":"2009-03-24","note":"Sensor relocated to sensor ID 25 on 2\/10\/2019","location_type":"Outdoor","status":"A","direction_1":"North","direction_2":"South","latitude":-37.82011242,"longitude":144.96291897}},{"type":"Feature","geometry":{"type":"Point","coordinates":[144.97305353,-37.81344862]},"properties":{"location_id":18,"sensor_description":"Collins Place (North)","sensor_name":"Col12_T","installation_date":"2009-03-30","note":null,"location_type":"Outdoor","status":"A","direction_1":"East","direction_2":"West","latitude":-37.81344862,"longitude":144.97305353}},{"type":"Feature","geometry":{"type":"Point","coordinates":[144.96689733,-37.81668634]},"properties":{"location_id":41,"sensor_description":"Flinders La-Swanston St (West)","sensor_name":"Swa31","installation_date":"2017-06-29","note":null,"location_type":"Outdoor","status":"A","direction_1":"North","direction_2":"South","latitude":-37.81668634,"longitude":144.96689733}},{"type":"Feature","geometry":{"type":"Point","coordinates":[144.96441306,-37.79698741]},"properties":{"location_id":44,"sensor_description":"Tin Alley-Swanston St (West)","sensor_name":"UM3_T","installation_date":"2015-04-15","note":"Pushbox Upgrade, 30\/06\/2023","location_type":"Outdoor","status":"A","direction_1":"North","direction_2":"South","latitude":-37.79698741,"longitude":144.96441306}},{"type":"Feature","geometry":{"type":"Point","coordinates":[144.9615673,-37.80240719]},"properties":{"location_id":46,"sensor_description":"Pelham St (South)","sensor_name":"Pel147_T","installation_date":"2017-07-10","note":null,"location_type":"Outdoor","status":"A","direction_1":"East","direction_2":"West","latitude":-37.80240719,"longitude":144.9615673}},{"type":"Feature","geometry":{"type":"Point","coordinates":[144.9625775,-37.81258467]},"properties":{"location_id":47,"sensor_description":"Melbourne Central-Elizabeth St (East)","sensor_name":"Eli250_T","installation_date":"2017-08-24","note":"Pushbox Upgrade, 25\/07\/2023. Move to 250 Elizabeth Street from adjacent St. Francis Church at 266 Elizabeth.","location_type":"Outdoor","status":"A","direction_1":"North","direction_2":"South","latitude":-37.81258467,"longitude":144.9625775}},{"type":"Feature","geometry":{"type":"Point","coordinates":[144.95866697,-37.80631581]},"properties":{"location_id":48,"sensor_description":"QVM-Queen St (East)","sensor_name":"QVMQ_T","installation_date":"2017-10-02","note":"Pushbox Upgrade, 03\/07\/2023","location_type":"Outdoor","status":"A","direction_1":"East","direction_2":"West","latitude":-37.80631581,"longitude":144.95866697}},{"type":"Feature","geometry":{"type":"Point","coordinates":[144.96721013,-37.79808192]},"properties":{"location_id":50,"sensor_description":"Faraday St-Lygon St (West)","sensor_name":"Lyg309_T","installation_date":"2017-11-30","note":"Pushbox Upgrade, 25\/07\/2023","location_type":"Outdoor","status":"A","direction_1":"North","direction_2":"South","latitude":-37.79808192,"longitude":144.96721013}},{"type":"Feature","geometry":{"type":"Point","coordinates":[144.965499,-37.81564191]},"properties":{"location_id":53,"sensor_description":"Collins Street (North)","sensor_name":"Col254_T","installation_date":"2015-09-23","note":null,"location_type":"Outdoor","status":"A","direction_1":"East","direction_2":"West","latitude":-37.81564191,"longitude":144.965499}},{"type":"Feature","geometry":{"type":"Point","coordinates":[144.96308399,-37.804024]},"properties":{"location_id":54,"sensor_description":"Lincoln-Swanston (West)","sensor_name":"Swa607_T","installation_date":"2018-06-26","note":null,"location_type":"Outdoor","status":"A","direction_1":"North","direction_2":"South","latitude":-37.804024,"longitude":144.96308399}},{"type":"Feature","geometry":{"type":"Point","coordinates":[144.96559144,-37.81687226]},"properties":{"location_id":69,"sensor_description":"Flinders Ln -Degraves St (Crossing)","sensor_name":"FLDegC_T","installation_date":"2020-06-03","note":null,"location_type":"Outdoor","status":"A","direction_1":"North","direction_2":"South","latitude":-37.81687226,"longitude":144.96559144}},{"type":"Feature","geometry":{"type":"Point","coordinates":[144.94908064,-37.80309992]},"properties":{"location_id":86,"sensor_description":"Queensberry St - Errol St (South)","sensor_name":"574Qub_T","installation_date":"2021-12-21","note":null,"location_type":"Outdoor","status":"A","direction_1":"East","direction_2":"West","latitude":-37.80309992,"longitude":144.94908064}},{"type":"Feature","geometry":{"type":"Point","coordinates":[144.96586575,-37.81685964]},"properties":{"location_id":89,"sensor_description":"City Library","sensor_name":"CityLi_T","installation_date":"2013-12-11","note":null,"location_type":"Indoor","status":"A","direction_1":null,"direction_2":null,"latitude":-37.81685964,"longitude":144.96586575}},{"type":"Feature","geometry":{"type":"Point","coordinates":[144.96115421,-37.82556207]},"properties":{"location_id":90,"sensor_description":"Boyd Community Hub- Library","sensor_name":"BoCoL_T","installation_date":"2015-08-11","note":null,"location_type":"Indoor","status":"A","direction_1":null,"direction_2":null,"latitude":-37.82556207,"longitude":144.96115421}},{"type":"Feature","geometry":{"type":"Point","coordinates":[144.97925064,-37.81499687]},"properties":{"location_id":96,"sensor_description":"Fitzroy Garden Visitor Centre Internal","sensor_name":"FitGarVisIInt_T","installation_date":"2015-03-02","note":"Pushbox Upgrade, 30\/06\/2023","location_type":"Indoor","status":"A","direction_1":null,"direction_2":null,"latitude":-37.81499687,"longitude":144.97925064}},{"type":"Feature","geometry":{"type":"Point","coordinates":[144.95678789,-37.81295822]},"properties":{"location_id":108,"sensor_description":"William St - Little Lonsdale St (West)","sensor_name":"261Will_T","installation_date":"2022-10-08","note":"Added lines for 7 Eleven Store - 2025-05-07","location_type":"Outdoor","status":"A","direction_1":"North","direction_2":"South","latitude":-37.81295822,"longitude":144.95678789}},{"type":"Feature","geometry":{"type":"Point","coordinates":[144.97090877,-37.81629332]},"properties":{"location_id":117,"sensor_description":"114 Flinders Street Car Park Footpath","sensor_name":"Fli114F_T","installation_date":"2022-12-06","note":null,"location_type":"Outdoor","status":"A","direction_1":"East","direction_2":"West","latitude":-37.81629332,"longitude":144.97090877}},{"type":"Feature","geometry":{"type":"Point","coordinates":[144.97329734,-37.81753741]},"properties":{"location_id":123,"sensor_description":"Birrarung Marr East - Batman Ave Bridge Entry","sensor_name":"BirBridge_T","installation_date":"2023-06-02","note":"<Null>","location_type":"Outdoor","status":"A","direction_1":"East","direction_2":"West","latitude":-37.81753741,"longitude":144.97329734}},{"type":"Feature","geometry":{"type":"Point","coordinates":[144.95227769,-37.81531435]},"properties":{"location_id":133,"sensor_description":"I-Hub Southern Cross Station - Lonsdale Street Entrance - South","sensor_name":"Spen229_T","installation_date":"2023-09-25","note":null,"location_type":"Outdoor","status":"A","direction_1":"North","direction_2":"South","latitude":-37.81531435,"longitude":144.95227769}},{"type":"Feature","geometry":{"type":"Point","coordinates":[144.9632832,-37.81959923]},"properties":{"location_id":139,"sensor_description":"COM Pole 1647 - Sandridge Bridge Signal Box","sensor_name":"Signal1647_T","installation_date":"2023-11-20","note":null,"location_type":"Outdoor","status":"A","direction_1":"East","direction_2":"West","latitude":-37.81959923,"longitude":144.9632832}},{"type":"Feature","geometry":{"type":"Point","coordinates":[144.96795734,-37.81970749]},"properties":{"location_id":142,"sensor_description":"COM Pole 1584 - Hammer Hall Entrance","sensor_name":"Hammer1584_T","installation_date":"2023-11-03","note":null,"location_type":"Outdoor","status":"A","direction_1":"East","direction_2":"West","latitude":-37.81970749,"longitude":144.96795734}},{"type":"Feature","geometry":{"type":"Point","coordinates":[144.95840594,-37.80766922]},"properties":{"location_id":146,"sensor_description":"narrm ngarrgu Library - Level 1 - Lift 3","sensor_name":"narrLibL1L3_T","installation_date":"2023-10-23","note":null,"location_type":"Indoor","status":"A","direction_1":null,"direction_2":null,"latitude":-37.80766922,"longitude":144.95840594}},{"type":"Feature","geometry":{"type":"Point","coordinates":[144.95845043,-37.80783201]},"properties":{"location_id":155,"sensor_description":"narrm ngarrgu Library - Level 3 Children's Library Door 2","sensor_name":"narrLibL#C2_T","installation_date":"2023-10-23","note":null,"location_type":"Indoor","status":"A","direction_1":null,"direction_2":null,"latitude":-37.80783201,"longitude":144.95845043}},{"type":"Feature","geometry":{"type":"Point","coordinates":[144.97131336,-37.81851276]},"properties":{"location_id":161,"sensor_description":"Birrarung Marr - COM - Pole 1109","sensor_name":"BirArt1109_T","installation_date":"2024-06-04","note":null,"location_type":"Outdoor","status":"A","direction_1":"East","direction_2":"West","latitude":-37.81851276,"longitude":144.97131336}},{"type":"Feature","geometry":{"type":"Point","coordinates":[144.94939004,-37.80953359]},"properties":{"location_id":165,"sensor_description":"475 Spencer Street","sensor_name":"Spen475_T","installation_date":"2024-08-14","note":null,"location_type":"Outdoor","status":"A","direction_1":"North","direction_2":"South","latitude":-37.80953359,"longitude":144.94939004}},{"type":"Feature","geometry":{"type":"Point","coordinates":[144.96143149,-37.81009465]},"properties":{"location_id":181,"sensor_description":"368 Elizabeth Street","sensor_name":"Eli368_T","installation_date":"2025-03-26","note":"Moved from 380 Elizabeth Street","location_type":"Outdoor","status":"A","direction_1":"North","direction_2":"South","latitude":-37.81009465,"longitude":144.96143149}},{"type":"Feature","geometry":{"type":"Point","coordinates":[144.96456557,-37.80663222]},"properties":{"location_id":188,"sensor_description":"RMIT Building 51 - 80-92 Victoria Street","sensor_name":"RMIT51_T","installation_date":"2025-10-17","note":null,"location_type":"Outdoor","status":"A","direction_1":"North","direction_2":"South","latitude":-37.80663222,"longitude":144.96456557}},{"type":"Feature","geometry":{"type":"Point","coordinates":[144.93978108,-37.8157484]},"properties":{"location_id":210,"sensor_description":"Docklands Waterfront City Waterside","sensor_name":"WatCit_T","installation_date":"2009-01-20","note":null,"location_type":"Outdoor","status":"A","direction_1":"East","direction_2":"West","latitude":-37.8157484,"longitude":144.93978108}},{"type":"Feature","geometry":{"type":"Point","coordinates":[144.96429485,-37.81101524]},"properties":{"location_id":3,"sensor_description":"Melbourne Central","sensor_name":"Swa295_T","installation_date":"2009-03-25","note":null,"location_type":"Outdoor","status":"A","direction_1":"North","direction_2":"South","latitude":-37.81101524,"longitude":144.96429485}},{"type":"Feature","geometry":{"type":"Point","coordinates":[144.96550671,-37.81237202]},"properties":{"location_id":19,"sensor_description":"Chinatown-Swanston St (North)","sensor_name":"LtB210_T","installation_date":"2013-09-02","note":"Pushbox Upgrade, 20\/07\/2023","location_type":"Outdoor","status":"A","direction_1":"East","direction_2":"West","latitude":-37.81237202,"longitude":144.96550671}},{"type":"Feature","geometry":{"type":"Point","coordinates":[144.9682466,-37.81172914]},"properties":{"location_id":20,"sensor_description":"Chinatown-Lt Bourke St (South)","sensor_name":"LtB170_T","installation_date":"2013-09-06","note":"Pushbox Upgrade, 20\/07\/2023","location_type":"Outdoor","status":"A","direction_1":"East","direction_2":"West","latitude":-37.81172914,"longitude":144.9682466}},{"type":"Feature","geometry":{"type":"Point","coordinates":[144.95644692,-37.80606888]},"properties":{"location_id":27,"sensor_description":"QV Market-Peel St","sensor_name":"Vic_T","installation_date":"2013-08-16","note":null,"location_type":"Outdoor","status":"A","direction_1":"East","direction_2":"West","latitude":-37.80606888,"longitude":144.95644692}},{"type":"Feature","geometry":{"type":"Point","coordinates":[144.96411782,-37.79844526]},"properties":{"location_id":43,"sensor_description":"Monash Rd-Swanston St (West)","sensor_name":"UM2_T","installation_date":"2015-04-15","note":null,"location_type":"Outdoor","status":"A","direction_1":"North","direction_2":"South","latitude":-37.79844526,"longitude":144.96411782}},{"type":"Feature","geometry":{"type":"Point","coordinates":[144.95906316,-37.80841815]},"properties":{"location_id":51,"sensor_description":"QVM-Franklin St (North)","sensor_name":"Fra118_T","installation_date":"2017-11-30","note":"Pushbox Upgrade, 20\/07\/2023","location_type":"Outdoor","status":"A","direction_1":"East","direction_2":"West","latitude":-37.80841815,"longitude":144.95906316}},{"type":"Feature","geometry":{"type":"Point","coordinates":[144.9619401,-37.81252157]},"properties":{"location_id":52,"sensor_description":"Elizabeth St-Lonsdale St (South)","sensor_name":"Eli263_T","installation_date":"2017-07-31","note":"Pushbox Upgrade, 25\/07\/2023","location_type":"Outdoor","status":"A","direction_1":"East","direction_2":"West","latitude":-37.81252157,"longitude":144.9619401}},{"type":"Feature","geometry":{"type":"Point","coordinates":[144.96153311,-37.81234775]},"properties":{"location_id":56,"sensor_description":"Lonsdale St - Elizabeth St (North)","sensor_name":"Lon364_T","installation_date":"2018-07-25","note":"Sensor device has been replaced","location_type":"Outdoor","status":"A","direction_1":"East","direction_2":"West","latitude":-37.81234775,"longitude":144.96153311}},{"type":"Feature","geometry":{"type":"Point","coordinates":[144.96559789,-37.8168479]},"properties":{"location_id":68,"sensor_description":"Flinders Ln -Degraves St (North)","sensor_name":"FLDegN_T","installation_date":"2020-06-03","note":null,"location_type":"Outdoor","status":"A","direction_1":"East","direction_2":"West","latitude":-37.8168479,"longitude":144.96559789}},{"type":"Feature","geometry":{"type":"Point","coordinates":[144.96872809,-37.81726338]},"properties":{"location_id":72,"sensor_description":"Flinders St- ACMI","sensor_name":"ACMI_T","installation_date":"2020-11-30","note":null,"location_type":"Outdoor","status":"A","direction_1":"East","direction_2":"West","latitude":-37.81726338,"longitude":144.96872809}},{"type":"Feature","geometry":{"type":"Point","coordinates":[144.96084343,-37.82579138]},"properties":{"location_id":81,"sensor_description":"Boyd Commuinty - Front door","sensor_name":"BoCoF_T","installation_date":"2021-03-30","note":null,"location_type":"Indoor","status":"A","direction_1":null,"direction_2":null,"latitude":-37.82579138,"longitude":144.96084343}},{"type":"Feature","geometry":{"type":"Point","coordinates":[144.96005554,-37.80667227]},"properties":{"location_id":82,"sensor_description":"512 Elizabeth Street","sensor_name":"Eli512_T","installation_date":"2021-11-05","note":null,"location_type":"Indoor","status":"A","direction_1":null,"direction_2":null,"latitude":-37.80667227,"longitude":144.96005554}},{"type":"Feature","geometry":{"type":"Point","coordinates":[144.92973378,-37.79432415]},"properties":{"location_id":85,"sensor_description":"Macaulay Rd (North)","sensor_name":"488Mac_T","installation_date":"2021-12-21","note":null,"location_type":"Outdoor","status":"A","direction_1":"East","direction_2":"West","latitude":-37.79432415,"longitude":144.92973378}},{"type":"Feature","geometry":{"type":"Point","coordinates":[144.98638807,-37.81498411]},"properties":{"location_id":93,"sensor_description":"East Melbourne Library","sensor_name":"EastLib_T","installation_date":"2013-02-02","note":null,"location_type":"Indoor","status":"A","direction_1":null,"direction_2":null,"latitude":-37.81498411,"longitude":144.98638807}},{"type":"Feature","geometry":{"type":"Point","coordinates":[144.9652825,-37.79861828]},"properties":{"location_id":105,"sensor_description":"Kathleen Syme Library Lib","sensor_name":"KatLib2_T","installation_date":"2018-02-02","note":null,"location_type":"Indoor","status":"A","direction_1":null,"direction_2":null,"latitude":-37.79861828,"longitude":144.9652825}},{"type":"Feature","geometry":{"type":"Point","coordinates":[144.97932442,-37.81493732]},"properties":{"location_id":116,"sensor_description":"Fitzroy Garden Visitor Centre Cafe Verandah","sensor_name":"FitCafVis_T","installation_date":"2015-03-02","note":"Pushbox Upgrade, 30\/06\/2023","location_type":"Indoor","status":"A","direction_1":null,"direction_2":null,"latitude":-37.81493732,"longitude":144.97932442}},{"type":"Feature","geometry":{"type":"Point","coordinates":[144.95386444,-37.81267639]},"properties":{"location_id":132,"sensor_description":"I-Hub Corner of King Street and Latrobe Street (317-335 King)","sensor_name":"King335_T","installation_date":"2023-09-25","note":null,"location_type":"Outdoor","status":"A","direction_1":"North","direction_2":"South","latitude":-37.81267639,"longitude":144.95386444}},{"type":"Feature","geometry":{"type":"Point","coordinates":[144.97357915,-37.8184141]},"properties":{"location_id":136,"sensor_description":"COM Pole 1120 - Towards the City, Near Federation Square Bridge","sensor_name":"BirFed1120_T","installation_date":"2023-11-03","note":null,"location_type":"Outdoor","status":"A","direction_1":"East","direction_2":"West","latitude":-37.8184141,"longitude":144.97357915}},{"type":"Feature","geometry":{"type":"Point","coordinates":[144.96185972,-37.82590962]},"properties":{"location_id":140,"sensor_description":"COM Pole 2837 - Boyd Park","sensor_name":"Boyd2837_T","installation_date":"2023-11-02","note":null,"location_type":"Outdoor","status":"A","direction_1":"North","direction_2":"South","latitude":-37.82590962,"longitude":144.96185972}},{"type":"Feature","geometry":{"type":"Point","coordinates":[144.95862847,-37.80760657]},"properties":{"location_id":144,"sensor_description":"narrm ngarrgu Library - Level 1 - Lift 1","sensor_name":"narrLibL1L1_T","installation_date":"2023-10-23","note":null,"location_type":"Indoor","status":"A","direction_1":"In","direction_2":"Out","latitude":-37.80760657,"longitude":144.95862847}},{"type":"Feature","geometry":{"type":"Point","coordinates":[144.95820087,-37.80791198]},"properties":{"location_id":150,"sensor_description":"narrm ngarrgu Library - Level 1 Main Stairs B","sensor_name":"narrLibL1MB_T","installation_date":"2023-10-23","note":null,"location_type":"Indoor","status":"A","direction_1":null,"direction_2":null,"latitude":-37.80791198,"longitude":144.95820087}},{"type":"Feature","geometry":{"type":"Point","coordinates":[144.9586238,-37.80771581]},"properties":{"location_id":151,"sensor_description":"narrm ngarrgu Library - Level 2 - Collections Stairs A","sensor_name":"narrLibL2CA_T","installation_date":"2023-10-23","note":null,"location_type":"Indoor","status":"A","direction_1":"In","direction_2":"Out","latitude":-37.80771581,"longitude":144.9586238}},{"type":"Feature","geometry":{"type":"Point","coordinates":[144.95862772,-37.80778437]},"properties":{"location_id":154,"sensor_description":"narrm ngarrgu Library - Level 3 Children's Library Door 1","sensor_name":"narrLibL3C1_T","installation_date":"2023-10-23","note":null,"location_type":"Indoor","status":"A","direction_1":"In","direction_2":"Out","latitude":-37.80778437,"longitude":144.95862772}},{"type":"Feature","geometry":{"type":"Point","coordinates":[144.96306214,-37.80699526]},"properties":{"location_id":160,"sensor_description":"City Baths, 420 Swanston Street - Main Entry","sensor_name":"Swa420_T","installation_date":"2024-06-04","note":null,"location_type":"Indoor","status":"A","direction_1":null,"direction_2":null,"latitude":-37.80699526,"longitude":144.96306214}},{"type":"Feature","geometry":{"type":"Point","coordinates":[144.96515323,-37.81349441]},"properties":{"location_id":1,"sensor_description":"Bourke Street Mall (North)","sensor_name":"Bou292_T","installation_date":"2009-03-24","note":null,"location_type":"Outdoor","status":"A","direction_1":"East","direction_2":"West","latitude":-37.81349441,"longitude":144.96515323}},{"type":"Feature","geometry":{"type":"Point","coordinates":[144.9660878,-37.81487988]},"properties":{"location_id":4,"sensor_description":"Town Hall (West)","sensor_name":"Swa123_T","installation_date":"2009-03-23","note":null,"location_type":"Outdoor","status":"A","direction_1":"North","direction_2":"South","latitude":-37.81487988,"longitude":144.9660878}},{"type":"Feature","geometry":{"type":"Point","coordinates":[144.96557866,-37.81907439]},"properties":{"location_id":6,"sensor_description":"Flinders Underpass - Myki Barriers","sensor_name":"FliS_T","installation_date":"2009-03-25","note":"Upgraded on 8\/09\/21","location_type":"Outdoor","status":"A","direction_1":"North","direction_2":"South","latitude":-37.81907439,"longitude":144.96557866}},{"type":"Feature","geometry":{"type":"Point","coordinates":[144.94710545,-37.81876474]},"properties":{"location_id":10,"sensor_description":"Victoria Point","sensor_name":"BouHbr_T","installation_date":"2009-04-23","note":null,"location_type":"Outdoor","status":"A","direction_1":"East","direction_2":"West","latitude":-37.81876474,"longitude":144.94710545}},{"type":"Feature","geometry":{"type":"Point","coordinates":[144.97323591,-37.81362543]},"properties":{"location_id":17,"sensor_description":"Collins Place (South)","sensor_name":"Col15_T","installation_date":"2009-03-30","note":"Device upgraded in 26\/02\/2020","location_type":"Outdoor","status":"A","direction_1":"East","direction_2":"West","latitude":-37.81362543,"longitude":144.97323591}},{"type":"Feature","geometry":{"type":"Point","coordinates":[144.96658911,-37.80169681]},"properties":{"location_id":31,"sensor_description":"Lygon St (West)","sensor_name":"Lyg161_T","installation_date":"2013-10-10","note":"Pushbox Upgrade, 25\/07\/2023","location_type":"Outdoor","status":"A","direction_1":"North","direction_2":"South","latitude":-37.80169681,"longitude":144.96658911}},{"type":"Feature","geometry":{"type":"Point","coordinates":[144.95358075,-37.81686075]},"properties":{"location_id":58,"sensor_description":"Bourke St - Spencer St (North)","sensor_name":"Bou688_T","installation_date":"2018-09-27","note":null,"location_type":"Outdoor","status":"A","direction_1":"East","direction_2":"West","latitude":-37.81686075,"longitude":144.95358075}},{"type":"Feature","geometry":{"type":"Point","coordinates":[144.96309114,-37.80767455]},"properties":{"location_id":61,"sensor_description":"RMIT Building 14","sensor_name":"RMIT14_T","installation_date":"2019-06-28","note":null,"location_type":"Outdoor","status":"A","direction_1":"North","direction_2":"South","latitude":-37.80767455,"longitude":144.96309114}},{"type":"Feature","geometry":{"type":"Point","coordinates":[144.96216521,-37.80996494]},"properties":{"location_id":62,"sensor_description":"La Trobe St (North)","sensor_name":"Lat224_T","installation_date":"2019-09-25","note":null,"location_type":"Outdoor","status":"A","direction_1":"East","direction_2":"West","latitude":-37.80996494,"longitude":144.96216521}},{"type":"Feature","geometry":{"type":"Point","coordinates":[144.97467661,-37.81515276]},"properties":{"location_id":75,"sensor_description":"Spring St- Flinders st (West)","sensor_name":"SprFli_T","installation_date":"2020-12-18","note":null,"location_type":"Outdoor","status":"A","direction_1":"North","direction_2":"South","latitude":-37.81515276,"longitude":144.97467661}},{"type":"Feature","geometry":{"type":"Point","coordinates":[144.94433026,-37.81441438]},"properties":{"location_id":77,"sensor_description":"Harbour Esplanade (West) - Pedestrian path","sensor_name":"HarEsP_T","installation_date":"2021-03-25","note":"Replaced - water damaged","location_type":"Outdoor","status":"A","direction_1":"North","direction_2":"South","latitude":-37.81441438,"longitude":144.94433026}},{"type":"Feature","geometry":{"type":"Point","coordinates":[144.96131206,-37.8254567]},"properties":{"location_id":80,"sensor_description":"Boyd Commuinty - Rear door","sensor_name":"BoCoR_T","installation_date":"2021-03-30","note":null,"location_type":"Indoor","status":"A","direction_1":null,"direction_2":null,"latitude":-37.8254567,"longitude":144.96131206}},{"type":"Feature","geometry":{"type":"Point","coordinates":[144.96005113,-37.8067319]},"properties":{"location_id":83,"sensor_description":"510 Elizabeth Street","sensor_name":"Eli510_T","installation_date":"2021-11-05","note":null,"location_type":"Indoor","status":"A","direction_1":null,"direction_2":null,"latitude":-37.8067319,"longitude":144.96005113}},{"type":"Feature","geometry":{"type":"Point","coordinates":[144.96503383,-37.81798049]},"properties":{"location_id":84,"sensor_description":"Elizabeth St - Flinders St (East) - New footpath","sensor_name":"ElFi_T","installation_date":"2021-12-03","note":"Sensing Data started on 2019-02-14","location_type":"Outdoor","status":"A","direction_1":"North","direction_2":"South","latitude":-37.81798049,"longitude":144.96503383}},{"type":"Feature","geometry":{"type":"Point","coordinates":[144.94921863,-37.80454949]},"properties":{"location_id":87,"sensor_description":"Errol St (West)","sensor_name":"Errol23_T","installation_date":"2022-05-20","note":null,"location_type":"Outdoor","status":"A","direction_1":"North","direction_2":"South","latitude":-37.80454949,"longitude":144.94921863}},{"type":"Feature","geometry":{"type":"Point","coordinates":[144.97851861,-37.81424531]},"properties":{"location_id":94,"sensor_description":"Fitzroy Garden- The Conservatory","sensor_name":"FitConVis_T","installation_date":"2015-03-02","note":null,"location_type":"Indoor","status":"A","direction_1":null,"direction_2":null,"latitude":-37.81424531,"longitude":144.97851861}},{"type":"Feature","geometry":{"type":"Point","coordinates":[144.94977011,-37.80340543]},"properties":{"location_id":102,"sensor_description":"North Melbourne Library","sensor_name":"NtMelLib_T","installation_date":"2018-02-02","note":null,"location_type":"Indoor","status":"A","direction_1":null,"direction_2":null,"latitude":-37.80340543,"longitude":144.94977011}},{"type":"Feature","geometry":{"type":"Point","coordinates":[144.9286055,-37.7893527]},"properties":{"location_id":103,"sensor_description":"Kensington Town Hall","sensor_name":"KenTown_T","installation_date":"2018-02-02","note":"Device Replace","location_type":"Indoor","status":"A","direction_1":null,"direction_2":null,"latitude":-37.7893527,"longitude":144.9286055}},{"type":"Feature","geometry":{"type":"Point","coordinates":[144.95690188,-37.81246271]},"properties":{"location_id":107,"sensor_description":"Royal Mint 280 William St","sensor_name":"280Will_T","installation_date":"2022-10-08","note":null,"location_type":"Outdoor","status":"A","direction_1":"North","direction_2":"South","latitude":-37.81246271,"longitude":144.95690188}},{"type":"Feature","geometry":{"type":"Point","coordinates":[144.95621105,-37.81193681]},"properties":{"location_id":109,"sensor_description":"La Trobe St- William St (South)","sensor_name":"LatWill_T","installation_date":"2022-10-08","note":null,"location_type":"Outdoor","status":"A","direction_1":"East","direction_2":"West","latitude":-37.81193681,"longitude":144.95621105}},{"type":"Feature","geometry":{"type":"Point","coordinates":[144.97329934,-37.81757416]},"properties":{"location_id":124,"sensor_description":"Birrarung Marr East - Batman Ave Bridge Entry","sensor_name":"BirBridge_T","installation_date":"2023-06-02","note":null,"location_type":"Outdoor","status":"A","direction_1":"North","direction_2":"South","latitude":-37.81757416,"longitude":144.97329934}},{"type":"Feature","geometry":{"type":"Point","coordinates":[144.95319102,-37.8172861]},"properties":{"location_id":135,"sensor_description":"I-Hub Southern Cross Station - Bourke Street Entrance - South","sensor_name":"Spen161_T","installation_date":"2023-09-25","note":null,"location_type":"Outdoor","status":"A","direction_1":"North","direction_2":"South","latitude":-37.8172861,"longitude":144.95319102}},{"type":"Feature","geometry":{"type":"Point","coordinates":[144.94612292,-37.81894815]},"properties":{"location_id":137,"sensor_description":"COM Pole 2353 - Towards the city, NAB Building","sensor_name":"BouHbr2353_T","installation_date":"2023-11-03","note":null,"location_type":"Outdoor","status":"A","direction_1":"East","direction_2":"West","latitude":-37.81894815,"longitude":144.94612292}},{"type":"Feature","geometry":{"type":"Point","coordinates":[144.95981454,-37.81996544]},"properties":{"location_id":138,"sensor_description":"COM Pole 1671 - Enterprize Park, Queens Bridge","sensor_name":"EntPark1671_T","installation_date":"2023-11-20","note":null,"location_type":"Outdoor","status":"A","direction_1":"East","direction_2":"West","latitude":-37.81996544,"longitude":144.95981454}},{"type":"Feature","geometry":{"type":"Point","coordinates":[144.95834911,-37.81997273]},"properties":{"location_id":141,"sensor_description":"Awning of Nationwide Parking 474 Flinders Street","sensor_name":"474Fl_T","installation_date":"2023-11-10","note":null,"location_type":"Outdoor","status":"A","direction_1":"East","direction_2":"West","latitude":-37.81997273,"longitude":144.95834911}},{"type":"Feature","geometry":{"type":"Point","coordinates":[144.9582219,-37.80781158]},"properties":{"location_id":149,"sensor_description":"narrm ngarrgu Library - Level 1 Main Stairs A","sensor_name":"narrLibL1MA_T","installation_date":"2023-10-23","note":null,"location_type":"Indoor","status":"A","direction_1":null,"direction_2":null,"latitude":-37.80781158,"longitude":144.9582219}},{"type":"Feature","geometry":{"type":"Point","coordinates":[144.96007044,-37.80657467]},"properties":{"location_id":158,"sensor_description":"514 Elizebeth Street","sensor_name":"Eli514_T","installation_date":"2024-01-29","note":null,"location_type":"Indoor","status":"A","direction_1":null,"direction_2":null,"latitude":-37.80657467,"longitude":144.96007044}},{"type":"Feature","geometry":{"type":"Point","coordinates":[144.96276183,-37.81374643]},"properties":{"location_id":185,"sensor_description":"197 Elizabeth Street","sensor_name":"Eli197_T","installation_date":"2025-06-28","note":null,"location_type":"Outdoor","status":"A","direction_1":"North","direction_2":"South","latitude":-37.81374643,"longitude":144.96276183}},{"type":"Feature","geometry":{"type":"Point","coordinates":[144.96549709,-37.81909037]},"properties":{"location_id":209,"sensor_description":"Flinders Underpass - Walkway","sensor_name":"FliS_T","installation_date":"2009-03-25","note":"Upgraded on 8\/09\/21","location_type":"Outdoor","status":"A","direction_1":"North","direction_2":"South","latitude":-37.81909037,"longitude":144.96549709}},{"type":"Feature","geometry":{"type":"Point","coordinates":[144.95449198,-37.81887963]},"properties":{"location_id":24,"sensor_description":"Spencer St-Collins St (North)","sensor_name":"Col620_T","installation_date":"2013-09-02","note":null,"location_type":"Outdoor","status":"A","direction_1":"East","direction_2":"West","latitude":-37.81887963,"longitude":144.95449198}},{"type":"Feature","geometry":{"type":"Point","coordinates":[144.96121062,-37.81652527]},"properties":{"location_id":36,"sensor_description":"Queen St (West)","sensor_name":"Que85_T","installation_date":"2015-01-20","note":"Pushbox Upgrade, 03\/08\/2023","location_type":"Outdoor","status":"A","direction_1":"North","direction_2":"South","latitude":-37.81652527,"longitude":144.96121062}},{"type":"Feature","geometry":{"type":"Point","coordinates":[144.96995745,-37.81379749]},"properties":{"location_id":39,"sensor_description":"Alfred Place","sensor_name":"AlfPl_T","installation_date":"2019-12-04","note":"In 4\/12\/2019 sensor upgraded","location_type":"Outdoor","status":"A","direction_1":"North","direction_2":"South","latitude":-37.81379749,"longitude":144.96995745}},{"type":"Feature","geometry":{"type":"Point","coordinates":[144.96609379,-37.81414075]},"properties":{"location_id":45,"sensor_description":"Little Collins St-Swanston St (East)","sensor_name":"Swa148_T","installation_date":"2017-06-29","note":"Pushbox Upgrade, 03\/08\/2023","location_type":"Outdoor","status":"A","direction_1":"North","direction_2":"South","latitude":-37.81414075,"longitude":144.96609379}},{"type":"Feature","geometry":{"type":"Point","coordinates":[144.95956055,-37.80730068]},"properties":{"location_id":49,"sensor_description":"QVM-Therry St (South)","sensor_name":"Eli501_T","installation_date":"2017-11-29","note":"Pushbox Upgrade, 20\/07\/2023","location_type":"Outdoor","status":"A","direction_1":"East","direction_2":"West","latitude":-37.80730068,"longitude":144.95956055}},{"type":"Feature","geometry":{"type":"Point","coordinates":[144.96304859,-37.80825648]},"properties":{"location_id":59,"sensor_description":"Building 80 RMIT","sensor_name":"RMIT_T","installation_date":"2019-02-13","note":null,"location_type":"Outdoor","status":"A","direction_1":"North","direction_2":"South","latitude":-37.80825648,"longitude":144.96304859}},{"type":"Feature","geometry":{"type":"Point","coordinates":[144.96444294,-37.81057846]},"properties":{"location_id":66,"sensor_description":"QV2 Apartments, 300 Swanston Street","sensor_name":"QVN_T","installation_date":"2020-04-06","note":null,"location_type":"Outdoor","status":"A","direction_1":"North","direction_2":"South","latitude":-37.81057846,"longitude":144.96444294}},{"type":"Feature","geometry":{"type":"Point","coordinates":[144.96616678,-37.81794046]},"properties":{"location_id":79,"sensor_description":"Flinders St (South)","sensor_name":"FliSS_T","installation_date":"2021-09-10","note":null,"location_type":"Outdoor","status":"A","direction_1":"East","direction_2":"West","latitude":-37.81794046,"longitude":144.96616678}},{"type":"Feature","geometry":{"type":"Point","coordinates":[144.94029861,-37.8200188]},"properties":{"location_id":91,"sensor_description":"Library at The Dock-North side","sensor_name":"DocLib1_T","installation_date":"2015-06-05","note":null,"location_type":"Indoor","status":"A","direction_1":null,"direction_2":null,"latitude":-37.8200188,"longitude":144.94029861}},{"type":"Feature","geometry":{"type":"Point","coordinates":[144.97926569,-37.81488315]},"properties":{"location_id":95,"sensor_description":"Fitzroy Garden Visitor Centre External","sensor_name":"FitGarExtVisExt_T","installation_date":"2015-03-02","note":"Pushbox Upgrade, 30\/06\/2023","location_type":"Indoor","status":"A","direction_1":null,"direction_2":null,"latitude":-37.81488315,"longitude":144.97926569}},{"type":"Feature","geometry":{"type":"Point","coordinates":[144.95823515,-37.80772224]},"properties":{"location_id":148,"sensor_description":"narrm ngarrgu Library - Level 1 - Meeting Room Lift 2","sensor_name":"narrLibMRL2_T","installation_date":"2023-10-23","note":null,"location_type":"Indoor","status":"A","direction_1":null,"direction_2":null,"latitude":-37.80772224,"longitude":144.95823515}},{"type":"Feature","geometry":{"type":"Point","coordinates":[144.95829765,-37.80780367]},"properties":{"location_id":153,"sensor_description":"narrm ngarrgu Library - Level 2 - Study Area Lifts 2","sensor_name":"narrLibL2S2_T","installation_date":"2023-10-23","note":null,"location_type":"Indoor","status":"A","direction_1":null,"direction_2":null,"latitude":-37.80780367,"longitude":144.95829765}},{"type":"Feature","geometry":{"type":"Point","coordinates":[144.95160411,-37.813005]},"properties":{"location_id":164,"sensor_description":"I-Hub 526 La Trobe Street (Footpath)","sensor_name":"Lat526_T","installation_date":"2024-08-14","note":null,"location_type":"Outdoor","status":"A","direction_1":"East","direction_2":"West","latitude":-37.813005,"longitude":144.95160411}},{"type":"Feature","geometry":{"type":"Point","coordinates":[144.93530329,-37.79497059]},"properties":{"location_id":180,"sensor_description":"Pumping Station No.2, 330 Macaulay Road","sensor_name":"Mac330_T","installation_date":"2025-03-11","note":null,"location_type":"Outdoor","status":"A","direction_1":"East","direction_2":"West","latitude":-37.79497059,"longitude":144.93530329}},{"type":"Feature","geometry":{"type":"Point","coordinates":[144.96516718,-37.81380668]},"properties":{"location_id":2,"sensor_description":"Bourke Street Mall (South)","sensor_name":"Bou283_T","installation_date":"2009-03-30","note":null,"location_type":"Outdoor","status":"A","direction_1":"East","direction_2":"West","latitude":-37.81380668,"longitude":144.96516718}},{"type":"Feature","geometry":{"type":"Point","coordinates":[144.9471751,-37.82293543]},"properties":{"location_id":8,"sensor_description":"Webb Bridge","sensor_name":"WebBN_T","installation_date":"2009-03-24","note":null,"location_type":"Outdoor","status":"A","direction_1":"North","direction_2":"South","latitude":-37.82293543,"longitude":144.9471751}},{"type":"Feature","geometry":{"type":"Point","coordinates":[144.93970694,-37.81564989]},"properties":{"location_id":11,"sensor_description":"Docklands Waterfront City Building Side","sensor_name":"WatCit_T","installation_date":"2009-01-20","note":"Device has been replaced with new sensor on 22\/03\/2019","location_type":"Outdoor","status":"A","direction_1":"East","direction_2":"West","latitude":-37.81564989,"longitude":144.93970694}},{"type":"Feature","geometry":{"type":"Point","coordinates":[144.96788288,-37.81267313]},"properties":{"location_id":21,"sensor_description":"155-161 Russell Street","sensor_name":"Bourke155_T","installation_date":"2013-09-02","note":null,"location_type":"Outdoor","status":"A","direction_1":"North","direction_2":"South","latitude":-37.81267313,"longitude":144.96788288}},{"type":"Feature","geometry":{"type":"Point","coordinates":[144.95452748,-37.81909256]},"properties":{"location_id":23,"sensor_description":"Spencer St-Collins St (South)","sensor_name":"Col623_T","installation_date":"2013-09-02","note":"Pushbox Upgrade, 25\/07\/2023","location_type":"Outdoor","status":"A","direction_1":"East","direction_2":"West","latitude":-37.81909256,"longitude":144.95452748}},{"type":"Feature","geometry":{"type":"Point","coordinates":[144.95604426,-37.82401776]},"properties":{"location_id":25,"sensor_description":"Melbourne Convention Exhibition Centre","sensor_name":"MCEC_T","installation_date":"2013-08-28","note":null,"location_type":"Outdoor","status":"A","direction_1":"East","direction_2":"West","latitude":-37.82401776,"longitude":144.95604426}},{"type":"Feature","geometry":{"type":"Point","coordinates":[144.96872865,-37.8199817]},"properties":{"location_id":29,"sensor_description":"St Kilda Rd-Alexandra Gardens","sensor_name":"AG_T","installation_date":"2013-10-11","note":"sensor upgraded from laser to 3D on 19\/12\/2019","location_type":"Outdoor","status":"A","direction_1":"North","direction_2":"South","latitude":-37.8199817,"longitude":144.96872865}},{"type":"Feature","geometry":{"type":"Point","coordinates":[144.96656806,-37.8112185]},"properties":{"location_id":30,"sensor_description":"Lonsdale St (South)","sensor_name":"Lon189_T","installation_date":"2013-10-14","note":"Pushbox Upgrade, 20\/07\/2023","location_type":"Outdoor","status":"A","direction_1":"East","direction_2":"West","latitude":-37.8112185,"longitude":144.96656806}},{"type":"Feature","geometry":{"type":"Point","coordinates":[144.96704554,-37.80107122]},"properties":{"location_id":37,"sensor_description":"Lygon St (East)","sensor_name":"Lyg260_T","installation_date":"2015-02-11","note":"Pushbox Upgrade, 30\/06\/2023. Move from 174 to 260 Lygon Street (12\/08\/2024)","location_type":"Outdoor","status":"A","direction_1":"North","direction_2":"South","latitude":-37.80107122,"longitude":144.96704554}},{"type":"Feature","geometry":{"type":"Point","coordinates":[144.97227587,-37.80999341]},"properties":{"location_id":40,"sensor_description":"Lonsdale St-Spring St (West)","sensor_name":"Spr201_T","installation_date":"2015-01-19","note":"Pushbox Upgrade, 03\/08\/2023","location_type":"Outdoor","status":"A","direction_1":"North","direction_2":"South","latitude":-37.80999341,"longitude":144.97227587}},{"type":"Feature","geometry":{"type":"Point","coordinates":[144.96386412,-37.80008566]},"properties":{"location_id":42,"sensor_description":"Grattan St-Swanston St (West)","sensor_name":"UM1_T","installation_date":null,"note":"Sensor Upgraded","location_type":"Outdoor","status":"A","direction_1":"North","direction_2":"South","latitude":-37.80008566,"longitude":144.96386412}},{"type":"Feature","geometry":{"type":"Point","coordinates":[144.96675571,-37.81333081]},"properties":{"location_id":63,"sensor_description":"231 Bourke St","sensor_name":"Bou231_T","installation_date":"2020-01-07","note":null,"location_type":"Outdoor","status":"A","direction_1":"East","direction_2":"West","latitude":-37.81333081,"longitude":144.96675571}},{"type":"Feature","geometry":{"type":"Point","coordinates":[144.96562569,-37.81688755]},"properties":{"location_id":67,"sensor_description":"Flinders Ln -Degraves St (South)","sensor_name":"FLDegS_T","installation_date":"2020-06-03","note":null,"location_type":"Outdoor","status":"A","direction_1":"East","direction_2":"West","latitude":-37.81688755,"longitude":144.96562569}},{"type":"Feature","geometry":{"type":"Point","coordinates":[144.94946228,-37.80456984]},"properties":{"location_id":70,"sensor_description":"Errol Street (East)","sensor_name":"Errol20_T","installation_date":"2020-10-12","note":null,"location_type":"Outdoor","status":"A","direction_1":"North","direction_2":"South","latitude":-37.80456984,"longitude":144.94946228}},{"type":"Feature","geometry":{"type":"Point","coordinates":[144.97136962,-37.81235775]},"properties":{"location_id":71,"sensor_description":"Westwood Place","sensor_name":"WestWP_T","installation_date":"2020-10-16","note":null,"location_type":"Outdoor","status":"A","direction_1":"North","direction_2":"South","latitude":-37.81235775,"longitude":144.97136962}},{"type":"Feature","geometry":{"type":"Point","coordinates":[144.93036194,-37.79453803]},"properties":{"location_id":76,"sensor_description":"Macaulay Rd- Bellair St","sensor_name":"KenMac_T","installation_date":"2021-02-20","note":null,"location_type":"Outdoor","status":"A","direction_1":"East","direction_2":"West","latitude":-37.79453803,"longitude":144.93036194}},{"type":"Feature","geometry":{"type":"Point","coordinates":[144.94039584,-37.82016286]},"properties":{"location_id":92,"sensor_description":"Library at The Dock-South side","sensor_name":"DocLib2_T","installation_date":"2015-06-05","note":null,"location_type":"Indoor","status":"A","direction_1":null,"direction_2":null,"latitude":-37.82016286,"longitude":144.94039584}},{"type":"Feature","geometry":{"type":"Point","coordinates":[144.96623279,-37.81462143]},"properties":{"location_id":99,"sensor_description":"Town Hall Visitor Centre","sensor_name":"TownVis_T","installation_date":"2020-02-02","note":"Pushbox Upgrade, 03\/08\/2023","location_type":"Indoor","status":"A","direction_1":null,"direction_2":null,"latitude":-37.81462143,"longitude":144.96623279}},{"type":"Feature","geometry":{"type":"Point","coordinates":[144.96548206,-37.79863553]},"properties":{"location_id":104,"sensor_description":"Kathleen Syme Library Main","sensor_name":"KatLib1_T","installation_date":"2018-02-02","note":null,"location_type":"Indoor","status":"A","direction_1":null,"direction_2":null,"latitude":-37.79863553,"longitude":144.96548206}},{"type":"Feature","geometry":{"type":"Point","coordinates":[144.96510921,-37.79859459]},"properties":{"location_id":106,"sensor_description":"Kathleen Syme Library Cafe","sensor_name":"KatLib3_T","installation_date":"2018-02-02","note":null,"location_type":"Indoor","status":"A","direction_1":null,"direction_2":null,"latitude":-37.79859459,"longitude":144.96510921}},{"type":"Feature","geometry":{"type":"Point","coordinates":[144.97090512,-37.81632783]},"properties":{"location_id":118,"sensor_description":"114 Flinders Street Car Park Crossing","sensor_name":"Fli114C_T","installation_date":"2022-12-06","note":null,"location_type":"Outdoor","status":"A","direction_1":"North","direction_2":"South","latitude":-37.81632783,"longitude":144.97090512}},{"type":"Feature","geometry":{"type":"Point","coordinates":[144.94126826,-37.8204637]},"properties":{"location_id":130,"sensor_description":"I-Hub 892 Bourke Street","sensor_name":"Bou892T","installation_date":"2023-09-25","note":null,"location_type":"Outdoor","status":"A","direction_1":"East","direction_2":"West","latitude":-37.8204637,"longitude":144.94126826}},{"type":"Feature","geometry":{"type":"Point","coordinates":[144.95758725,-37.82009057]},"properties":{"location_id":131,"sensor_description":"I-Hub Corner of King Street and Flinders Street (2-6 King)","sensor_name":"King2_T","installation_date":"2023-09-25","note":null,"location_type":"Outdoor","status":"A","direction_1":"North","direction_2":"South","latitude":-37.82009057,"longitude":144.95758725}},{"type":"Feature","geometry":{"type":"Point","coordinates":[144.95303935,-37.81694221]},"properties":{"location_id":134,"sensor_description":"I-Hub Southern Cross Station - Bourke Street Entrance - North","sensor_name":"Spen201_T","installation_date":"2023-09-25","note":null,"location_type":"Outdoor","status":"A","direction_1":"North","direction_2":"South","latitude":-37.81694221,"longitude":144.95303935}},{"type":"Feature","geometry":{"type":"Point","coordinates":[144.95557015,-37.821728]},"properties":{"location_id":143,"sensor_description":"Mounted on Toilet - Spencer Street, Batman Park","sensor_name":"Spencer_T","installation_date":"2024-04-10","note":null,"location_type":"Outdoor","status":"A","direction_1":"North","direction_2":"South","latitude":-37.821728,"longitude":144.95557015}},{"type":"Feature","geometry":{"type":"Point","coordinates":[144.95850722,-37.80763871]},"properties":{"location_id":145,"sensor_description":"narrm ngarrgu Library - Level 1 - Lift 2","sensor_name":"narrLibL1L2_T","installation_date":"2023-10-23","note":null,"location_type":"Indoor","status":"A","direction_1":null,"direction_2":null,"latitude":-37.80763871,"longitude":144.95850722}},{"type":"Feature","geometry":{"type":"Point","coordinates":[144.95832131,-37.80769805]},"properties":{"location_id":147,"sensor_description":"narrm ngarrgu Library - Level 1 - Meeting Room Lift 1","sensor_name":"narrLibMRL1_T","installation_date":"2023-10-23","note":null,"location_type":"Indoor","status":"A","direction_1":null,"direction_2":null,"latitude":-37.80769805,"longitude":144.95832131}},{"type":"Feature","geometry":{"type":"Point","coordinates":[144.95843977,-37.80776728]},"properties":{"location_id":152,"sensor_description":"narrm ngarrgu Library - Level 2 - Study Area Lifts 1","sensor_name":"narrLibL2S1_T","installation_date":"2023-10-23","note":null,"location_type":"Indoor","status":"A","direction_1":null,"direction_2":null,"latitude":-37.80776728,"longitude":144.95843977}},{"type":"Feature","geometry":{"type":"Point","coordinates":[144.96007934,-37.80651646]},"properties":{"location_id":159,"sensor_description":"516 Elizeberth Street","sensor_name":"Eli516_T","installation_date":"2024-01-29","note":null,"location_type":"Indoor","status":"A","direction_1":null,"direction_2":null,"latitude":-37.80651646,"longitude":144.96007934}},{"type":"Feature","geometry":{"type":"Point","coordinates":[144.95987909,-37.80740397]},"properties":{"location_id":162,"sensor_description":"iHub 489 Elizabeth Street","sensor_name":"Eli489_T","installation_date":"2024-07-01","note":null,"location_type":"Outdoor","status":"A","direction_1":"North","direction_2":"South","latitude":-37.80740397,"longitude":144.95987909}},{"type":"Feature","geometry":{"type":"Point","coordinates":[144.94931703,-37.80896733]},"properties":{"location_id":166,"sensor_description":"484 Spencer Street","sensor_name":"Spen484_T","installation_date":"2024-09-25","note":"Former sensor 227 Bourke Street \u2013 City Lab","location_type":"Outdoor","status":"A","direction_1":"North","direction_2":"South","latitude":-37.80896733,"longitude":144.94931703}},{"type":"Feature","geometry":{"type":"Point","coordinates":[144.95155955,-37.81304149]},"properties":{"location_id":167,"sensor_description":"I-Hub 526 La Trobe Street (Crossing)","sensor_name":"Lat526_T","installation_date":"2024-08-14","note":null,"location_type":"Outdoor","status":"A","direction_1":"North","direction_2":"South","latitude":-37.81304149,"longitude":144.95155955}},{"type":"Feature","geometry":{"type":"Point","coordinates":[144.96299677,-37.82392385]},"properties":{"location_id":179,"sensor_description":"61-67 Power Street Southbank","sensor_name":"Pow61_T","installation_date":"2024-12-19","note":null,"location_type":"Outdoor","status":"A","direction_1":"North","direction_2":"South","latitude":-37.82392385,"longitude":144.96299677}},{"type":"Feature","geometry":{"type":"Point","coordinates":[144.95550503,-37.81627451]},"properties":{"location_id":182,"sensor_description":"163 King Street","sensor_name":"King163_T","installation_date":"2025-04-11","note":null,"location_type":"Outdoor","status":"A","direction_1":"North","direction_2":"South","latitude":-37.81627451,"longitude":144.95550503}},{"type":"Feature","geometry":{"type":"Point","coordinates":[144.96371988,-37.81512416]},"properties":{"location_id":184,"sensor_description":"124 Elizabeth Street","sensor_name":"Eli124_T","installation_date":"2025-06-28","note":null,"location_type":"Outdoor","status":"A","direction_1":"North","direction_2":"South","latitude":-37.81512416,"longitude":144.96371988}},{"type":"Feature","geometry":{"type":"Point","coordinates":[144.96395473,-37.80942561]},"properties":{"location_id":187,"sensor_description":"RMIT Building 22 - 330 Swanston Street","sensor_name":"Swa330_T","installation_date":"2025-10-18","note":null,"location_type":"Outdoor","status":"A","direction_1":"East","direction_2":"West","latitude":-37.80942561,"longitude":144.96395473}},{"type":"Feature","geometry":{"type":"Point","coordinates":[144.96499384,-37.82020539]},"properties":{"location_id":211,"sensor_description":"Southbank Promenade - Building Side","sensor_name":"SouthB_T","installation_date":"2021-04-15","note":"Building side","location_type":"Outdoor","status":"A","direction_1":"East","direction_2":"West","latitude":-37.82020539,"longitude":144.96499384}},{"type":"Feature","geometry":{"type":"Point","coordinates":[144.96501549,-37.82025374]},"properties":{"location_id":212,"sensor_description":"Southbank Promenade - Riverside","sensor_name":"SouthB_T","installation_date":"2021-04-15","note":"River side","location_type":"Outdoor","status":"A","direction_1":"East","direction_2":"West","latitude":-37.82025374,"longitude":144.96501549}}]}